,postal,x,y,lat,long,name,subzone,area,region,code,status,bus_interchange,mrt_interchange,code1,code2,code3,CC,NE,NS,DT,EW,CG,BP,TE,CE,svc,bus count,pop,hub,min_dist,nearest_hub,cluster,bus_rank,pop_rank,dist_rank,pop-bus_rank
0,534803,34128.79235,35258.74882,1.3351415009999998,103.88838929999999,Tai Seng,Tai Seng,Hougang,North-East,CC11,operational,False,False,CC11,,,11.0,,,,,,,,,"24,70,151,80A,76,58A,43,158,62A,90A,62,90,22,93,58B,80,28,70A,70M,58",20,13830.0,False,6.624440279151453,Tampines,2.0,0.6219512195121951,0.5934959349593496,0.8211382113821138,-0.028455284552845517
2,554533,31431.405469999998,37079.94437,1.351612171,103.86415190000001,Lorong Chuan,Lorong Chuan,Serangoon,North-East,CC14,operational,False,False,CC14,,,14.0,,,,,,,,,"105,58",2,8490.0,False,7.635612297254236,Raffles Place,1.0,0.052845528455284556,0.4634146341463415,0.9105691056910569,0.4105691056910569
3,573993,28679.368769999997,36758.71365,1.348707263,103.83942309999999,Marymount,Upper Thomson,Bishan,Central,CC16,operational,False,False,CC16,,,16.0,,,,,,,,,"163,130,167,851,54,165,410G,162M,74,52,162,855,852,132,166,410,410W,980",18,29390.0,False,7.304788436583408,Raffles Place,2.0,0.5650406504065041,0.7560975609756098,0.8861788617886179,0.19105691056910568
5,257494,25959.6005,33818.14422,1.322113736,103.8149845,Botanic Gardens,Tyersall,Tanglin,Central,CC19/DT9,operational,False,True,CC19,DT9,,19.0,,,9.0,,,,,,"170A,186,153,154,151,48,67,156",8,3880.0,False,5.855440400164224,Raffles Place,2.0,0.22357723577235772,0.3902439024390244,0.6991869918699187,0.16666666666666669
6,189561,29930.76738,31025.9016,1.296861686,103.8506674,Bras Basah,Bras Basah,Museum,Central,CC2,operational,False,False,CC2,,,2.0,,,,,,,,,"130,147,850E,124,147A,162M,7A,12,131,502,2A,133,32,111,656,851,16,665,162,660,33,166,36,16M,857,851e,502A,167,190,174,652,51,175,14A,518,80,63,951E,77,960,174e,131A,61,14e,7,145,857B,12e,106,36B,960e,2,36A,197,518A,663,14",57,10.0,False,1.4189371249231832,Raffles Place,2.0,0.991869918699187,0.032520325203252036,0.14634146341463414,-0.959349593495935
7,268857,25113.2012,33301.26022,1.317439152,103.8073792,Farrer Road,Farrer Court,Bukit Timah,Central,CC20,operational,False,False,CC20,,,20.0,,,,,,,,,"93,186,174,961,153,5N,165,855,48,961M",10,6180.0,False,6.143011398654056,Raffles Place,1.0,0.2967479674796748,0.4146341463414634,0.7479674796747967,0.1178861788617886
8,278995,23891.21523,32726.41283,1.312240296,103.79639909999999,Holland Village,Leedon Park,Bukit Timah,Central,CC21,operational,False,False,CC21,,,21.0,,,,,,,,,"7,5N,106,75,NR8,165,970,7B,95,48,77,61",12,6440.0,False,6.449275377687267,Jurong East,1.0,0.3617886178861789,0.42276422764227645,0.8130081300813008,0.06097560975609756
9,138647,22896.072809999998,31346.4081,1.299759875,103.7874575,One-North,One North,Queenstown,Central,CC23,operational,False,False,CC23,,,23.0,,,,,,,,,"191,91",2,720.0,False,6.24520518367289,Jurong East,2.0,0.052845528455284556,0.24796747967479674,0.7723577235772358,0.19512195121951217
10,118177,22575.01071,30657.933289999997,1.293533499,103.78457270000001,Kent Ridge,National University Of S'Pore,Queenstown,Central,CC24,operational,False,False,CC24,,,24.0,,,,,,,,,"166,92,92B,33A,97,200A,963e,200,92A,95,95B,963,33,197,14",15,240.0,False,6.4424871029573065,Jurong East,2.0,0.4796747967479675,0.18292682926829268,0.8048780487804879,-0.2967479674796748
11,117396,22261.1431,29445.80204,1.282571358,103.7817527,Haw Par Villa,Pasir Panjang 1,Queenstown,Central,CC25,operational,False,False,CC25,,,25.0,,,,,,,,,"30,200A,51,176,175,200,10,143,188,30e",10,4510.0,False,7.133194912025373,Jurong East,2.0,0.2967479674796748,0.3983739837398374,0.8780487804878049,0.1016260162601626
12,117424,23329.26471,28742.765760000002,1.276213522,103.7913503,Pasir Panjang,Port,Queenstown,Central,CC26,operational,False,False,CC26,,,26.0,,,,,,,,,"30,51,176,188e,175,10,143,188,30e",9,120.0,False,6.740080252255567,Raffles Place,2.0,0.25203252032520324,0.14634146341463414,0.8536585365853658,-0.1056910569105691
13,109029,24584.77505,28304.9441,1.272254177,103.8026316,Labrador Park,Maritime Square,Bukit Merah,Central,CC27,operational,False,False,CC27,,,27.0,,,,,,,,,"166,93,30,57,97,963,51,176,100,175,10,120,143,188,30e,61",16,3620.0,False,5.586505633171773,Raffles Place,2.0,0.5203252032520326,0.36585365853658536,0.6585365853658537,-0.15447154471544722
14,109028,25378.2908,28133.79905,1.270706477,103.80976159999999,Telok Blangah,Maritime Square,Bukit Merah,Central,CC28,operational,False,False,CC28,,,28.0,,,,,,,,,"143,93,166,30,57,61,97,963,176,100,124,10,120,97e,188R,188,963R",17,3620.0,False,4.869915390070611,Raffles Place,0.0,0.5487804878048781,0.36585365853658536,0.5609756097560976,-0.18292682926829273
15,189562,30421.99348,30671.62777,1.293657725,103.8550812,Esplanade,City Hall,Downtown Core,Central,CC3,operational,False,False,CC3,,,3.0,,,,,,,,,"130,850E,162M,107M,70,502,131,961M,196A,133,196,111,56,656,961,665,162,660,36,16M,857,502A,167,652,100,10e,518,10,196e,951E,77,960,14e,131A,107,57,857B,106,36B,960e,16,518A,663,14",44,80.0,False,1.13372685242048,Raffles Place,2.0,0.9349593495934959,0.12601626016260162,0.11382113821138211,-0.8089430894308943
19,38970,31374.164930000003,31347.152869999998,1.2997668470000001,103.863637,Nicoll Highway,Nicoll,Downtown Core,Central,CC5,operational,False,False,CC5,,,5.0,,,,,,,,,"196,70A,70M,70,14A,10,16,196A,16M,14",10,290.0,False,2.2038230400006147,Raffles Place,2.0,0.2967479674796748,0.2032520325203252,0.24390243902439024,-0.0934959349593496
20,397692,32676.347710000002,31683.94076,1.302812468,103.8753377,Stadium,Tanjong Rhu,Kallang,Central,CC6,operational,False,False,CC6,,,6.0,,,,,,,,,11,1,11110.0,False,3.370823450428401,Raffles Place,2.0,0.016260162601626018,0.5447154471544715,0.3821138211382114,0.5284552845528455
21,398006,33476.56343,32058.74185,1.306201905,103.8825281,Mountbatten,Aljunied,Geylang,Central,CC7,operational,False,False,CC7,,,7.0,,,,,,,,,"196,30,11,158,14A,158A,12,196A,401,14",10,39990.0,False,4.237082532503504,Raffles Place,1.0,0.2967479674796748,0.8861788617886179,0.4878048780487805,0.5894308943089431
22,397973,34204.0253,32318.174460000002,1.308547984,103.8890647,Dakota,Aljunied,Geylang,Central,CC8,operational,False,False,CC8,,,8.0,,,,,,,,,"32,30,33,33B,10,31,16,401,16M,30e",10,39990.0,False,4.984850373853625,Raffles Place,1.0,0.2967479674796748,0.8861788617886179,0.5772357723577236,0.5894308943089431
23,409049,34559.69169,33280.11819,1.317247385,103.8922608,Paya Lebar,Geylang East,Geylang,Central,CC9/EW8,operational,False,True,CC9,EW8,,9.0,,,,8.0,,,,,"26,155,24,135,154,70,137,2A,76,43,134,853M,67,30,51,13,43e,28,21,70A,70M,40,2,197",24,29920.0,False,5.842508641677273,Raffles Place,2.0,0.7520325203252033,0.7764227642276422,0.6910569105691057,0.024390243902438935
24,257877,27188.22996,33591.66086,1.320065558,103.82602440000001,Stevens,Nassim,Tanglin,Central,DT10/TE11,operational,False,True,DT10,TE11,,,,,10.0,,,,11.0,,"170A,105,190,972A,NR3,960e,NR2,190A,48,960,132,972M,67,972",14,9520.0,False,4.895610882239643,Raffles Place,2.0,0.44715447154471544,0.4878048780487805,0.5691056910569106,0.04065040650406504
25,188505,30164.70185,31798.87668,1.303852185,103.8527694,Rochor,Bencoolen,Rochor,Central,DT13,operational,False,False,DT13,,,,,,13.0,,,,,,"170A,131A,56,851e,166,57,851,23,960e,131,48,960,4N,2N,67,980",16,1310.0,False,2.198307018829163,Raffles Place,2.0,0.5203252032520326,0.2967479674796748,0.23577235772357724,-0.22357723577235777
27,18969,30172.668810000003,29100.208769999997,1.279446382,103.8528408,Downtown,Central Subzone,Downtown Core,Central,DT17,operational,False,False,DT17,,,,,,17.0,,,,,,"130,186,672,97,670,653,850E,651,671,70,131,97e,502,982E,196A,513,666,133,196,656,970,665,655,162,660,502A,167,652,75,100,661,10e,10,196e,951E,667,654,131A,107,57,668,657,106,400,663",45,880.0,False,0.5424231647905721,Raffles Place,2.0,0.943089430894309,0.26422764227642276,0.04878048780487805,-0.6788617886178863
28,48416,29706.12592,29390.195389999997,1.282068948,103.8486488,Telok Ayer,Chinatown,Outram,Central,DT18,operational,False,False,DT18,,,,,,18.0,,,,,,"130,186,850E,70,131,196,656,970,665,868E,162,660,167,652,75,100,10e,10,196e,951E,107,57,663",23,10490.0,False,0.3874037875731798,Raffles Place,2.0,0.7195121951219512,0.5203252032520326,0.04065040650406504,-0.19918699186991862
29,58362,29316.049,29628.478939999997,1.284223919,103.8451438,Chinatown,China Square,Outram,Central,DT19/NE4,operational,False,True,DT19,NE4,,,4.0,,19.0,,,,,,"186,147,124,147A,12,961M,2A,2,961,851,970,63A,33,CT8,166,851e,190,174,51,80,CT18,63,174e,61,145,12e,143,54,197",29,1430.0,False,0.7024270458848155,Raffles Place,2.0,0.8008130081300813,0.3089430894308943,0.056910569105691054,-0.49186991869918695
30,679696,20334.55891,39092.85854,1.369815449,103.7644392,Cashew,Jelebu,Bukit Panjang,West,DT2,operational,False,False,DT2,,,,,,2.0,,,,,,"170A,961,184,176,75,178,970,177,963,961M,67",11,31310.0,False,4.762761325888915,Jurong East,2.0,0.33739837398373984,0.7886178861788617,0.5447154471544715,0.4512195121951219
31,179038,29225.627610000003,30541.60877,1.292481948,103.8443314,Fort Canning,Clarke Quay,Singapore River,Central,DT20,operational,False,False,DT20,,,,,,20.0,,,,,,"NR6,5N,195,139,2N,1N,32,195A,NR5,6N,NR8,64,NR3,NR2,4N,123,NR1,3N,143,54",20,130.0,False,1.2213428367730428,Raffles Place,2.0,0.6219512195121951,0.15853658536585366,0.13008130081300814,-0.46341463414634143
32,189658,29895.86395,31253.32587,1.298918434,103.8503538,Bencoolen,Bencoolen,Rochor,Central,DT21,operational,False,False,DT21,,,,,,21.0,,,,,,"NR6,147,5N,850E,124,147A,162M,139,131,502,2N,1N,111,56,656,665,162,660,166,36,16M,857,502A,167,190,6N,174,652,65,64,175,518,951E,77,4N,174e,131A,14e,7,857B,106,3N,36B,16,518A,663,14",47,1310.0,False,1.6494914203880617,Raffles Place,2.0,0.9552845528455285,0.2967479674796748,0.2032520325203252,-0.6585365853658537
33,208826,30445.85298,31944.74962,1.305171388,103.8552957,Jalan Besar,Sungei Road,Rochor,Central,DT22,operational,False,False,DT22,,,,,,22.0,,,,,,"170A,130,147,147A,139,2N,851,48,67,857,851e,64,65,23,960,4N,57,857B,960e",19,2050.0,False,2.3786796864105724,Raffles Place,1.0,0.5894308943089431,0.3333333333333333,0.2845528455284553,-0.2560975609756098
34,339356,31300.767610000003,32884.770919999995,1.313672528,103.8629776,Bendemeer,Kallang Bahru,Kallang,Central,DT23,operational,False,False,DT23,,,,,,23.0,,,,,,"961,175,107M,961M,107,61",6,20.0,False,3.5260683901613956,Raffles Place,2.0,0.15040650406504066,0.07317073170731707,0.3983739837398374,-0.0772357723577236
35,339355,32262.86126,33728.31269,1.321301102,103.8716226,Geylang Bahru,Geylang Bahru,Kallang,Central,DT24,operational,False,False,DT24,,,,,,24.0,,,,,,"26,853,175,107M,853M,140,107,61",8,11280.0,False,4.702203235019118,Raffles Place,1.0,0.22357723577235772,0.5528455284552846,0.5203252032520326,0.32926829268292684
36,379314,33556.583439999995,34344.85853,1.326876715,103.8832475,Mattar,Macpherson,Geylang,Central,DT25,operational,False,False,DT25,,,,,,25.0,,,,,,"155,135,154,158,65,40,63,63A,63M,61",10,28360.0,False,5.923120647868491,Raffles Place,1.0,0.2967479674796748,0.7357723577235772,0.7073170731707317,0.4390243902439024
37,378956,34230.010480000004,34264.54353,1.326150245,103.88929859999999,Macpherson,Macpherson,Geylang,Central,DT26/CC10,operational,False,True,DT26,CC10,,10.0,,,26.0,,,,,,"24,155,135,154,70,80A,137,76,43,158,63A,65,43e,80,28,63,61,70A,70M,40,63M",21,28360.0,False,6.287144606614757,Raffles Place,1.0,0.6504065040650406,0.7357723577235772,0.7967479674796748,0.08536585365853655
38,408899,35334.89183,34687.41099,1.32997426,103.8992267,Ubi,Kampong Ubi,Geylang,Central,DT27,operational,False,False,DT27,,,,,,27.0,,,,,,"61,63,137,65,8,63A,63M,22",8,11800.0,False,5.725692256320612,Tampines,2.0,0.22357723577235772,0.5772357723577236,0.6747967479674797,0.3536585365853659
39,415804,36362.378280000004,35239.552260000004,1.33496736,103.9084593,Kaki Bukit,Kaki Bukit,Bedok,East,DT28,operational,False,False,DT28,,,,,,28.0,,,,,,"15A,5,59,58A,87,15,58B,58",8,37150.0,False,4.559287373952166,Tampines,1.0,0.22357723577235772,0.8252032520325203,0.5040650406504065,0.6016260162601625
40,479481,37421.743819999996,35214.680389999994,1.334742117,103.91797829999999,Bedok North,Kaki Bukit,Bedok,East,DT29,operational,False,False,DT29,,,,,,29.0,,,,,,"87,23,518,137,137A,60,60T",7,37150.0,False,3.657719984716059,Tampines,0.0,0.18699186991869918,0.8252032520325203,0.4065040650406504,0.6382113821138211
41,678211,20666.06755,38266.78985,1.362344868,103.7674183,Hillview,Nature Reserve,Bukit Panjang,West,DT3,operational,False,False,DT3,,,,,,3.0,,,,,,"170A,973,961,653,184,176,75,178,970,963,961M,67",12,3850.0,False,4.282728415023003,Jurong East,1.0,0.3617886178861789,0.3821138211382114,0.4959349593495935,0.02032520325203252
42,469724,39008.313160000005,35421.04087,1.33660783,103.93223459999999,Bedok Reservoir,Bedok Reservoir,Bedok,East,DT30,operational,False,False,DT30,,,,,,30.0,,,,,,"5,21,59,168,46,65,69,CT18,28,18,228,2N,67",13,25470.0,False,2.3463467299186265,Tampines,0.0,0.4065040650406504,0.6910569105691057,0.2764227642276423,0.2845528455284553
43,529683,39698.52759,36406.01433,1.345515306,103.938437,Tampines West,Tampines West,Tampines,East,DT31,operational,False,False,DT31,,,,,,31.0,,,,,,"46,513,2N,18,5,15,129,8,67,15A,59,118B,65,23,518,69,28,21,118,168,118A",21,79670.0,False,1.1426300200902815,Tampines,1.0,0.6504065040650406,0.967479674796748,0.12195121951219512,0.3170731707317074
44,529623,41501.07485,37586.61776,1.3561914830000001,103.9546345,Tampines East,Tampines East,Tampines,East,DT33,operational,False,False,DT33,,,,,,33.0,,,,,,"9A,19,34B,12,293T,34,18,37,17,29A,8,3,4,59,38,518,81,29,21,12e,293,39,9",23,130980.0,False,1.102787122511803,Tampines,0.0,0.7195121951219512,0.9959349593495935,0.0975609756097561,0.27642276422764234
45,485990,42262.18797,35988.65688,1.341739774,103.9614728,Upper Changi,Simei,Tampines,East,DT34,operational,False,False,DT34,,,,,,34.0,,,,,,"24,2,5,4N",4,39450.0,False,2.224288375541891,Tampines,2.0,0.10569105691056911,0.8577235772357723,0.25203252032520324,0.7520325203252032
46,485985,42362.603460000006,35285.70839,1.3353825259999998,103.9623747,Expo,Xilin,Tampines,East,DT35/CG1,operational,False,True,DT35,CG1,,,,,35.0,,1.0,,,,"20,118,47",3,1760.0,False,2.7638345626468994,Tampines,2.0,0.08943089430894309,0.32113821138211385,0.3170731707317073,0.23170731707317077
48,599987,22444.489569999998,35316.247910000006,1.335661613,103.7833991,King Albert Park,Holland Road,Bukit Timah,Central,DT6,operational,False,False,DT6,,,,,,6.0,,,,,,"170A,174,961,154,157,74,970,151,852,77,961M,67",12,10840.0,False,4.578800951430941,Jurong East,2.0,0.3617886178861789,0.5365853658536586,0.5121951219512195,0.17479674796747968
49,269784,23947.749369999998,34785.0233,1.330857645,103.7969068,Sixth Avenue,Coronation Road,Bukit Timah,Central,DT7,operational,False,False,DT7,,,,,,7.0,,,,,,"170A,174,961,154,157,74,970,151,852,77,961M,67,156",13,6690.0,False,6.077242419253232,Jurong East,2.0,0.4065040650406504,0.4349593495934959,0.7398373983739838,0.028455284552845517
50,266268,25155.62211,34198.80531,1.325556235,103.8077603,Tan Kah Kee,Coronation Road,Bukit Timah,Central,DT8,operational,False,False,DT8,,,,,,8.0,,,,,,"170A,174,961,154,157,74,151,852,961M,67,156",11,6690.0,False,6.695115347666235,Raffles Place,2.0,0.33739837398373984,0.4349593495934959,0.8373983739837398,0.09756097560975607
51,208699,31277.40623,32188.73379,1.307377817,103.8627676,Lavender,Lavender,Kallang,Central,EW11,operational,False,False,EW11,,,,,,,11.0,,,,,"107M,7A,12,961M,2A,980,32,133,961,63A,33,51,100,175,80,63,107,61,7,145,2,197",22,9690.0,False,2.874820352400629,Raffles Place,1.0,0.6788617886178862,0.4959349593495935,0.3252032520325203,-0.18292682926829268
52,188022,30491.60007,31424.35127,1.300465085,103.8557067,Bugis,Victoria,Rochor,Central,EW12/DT14,operational,False,True,EW12,DT14,,,,,14.0,12.0,,,,,"170A,130,7A,12,2A,2N,980,133,32,851,63A,48,33,851e,51,175,80,63,960,4N,61,7,145,57,12e,960e,2,197",28,1760.0,False,1.8771511850231426,Raffles Place,2.0,0.7764227642276422,0.32113821138211385,0.21951219512195122,-0.4552845528455284
53,179100,30144.25038,30591.900810000003,1.292936722,103.8525856,City Hall,City Hall,Downtown Core,Central,EW13 / NS25,operational,False,True,EW13,NS25,,,,25.0,,13.0,,,,,"130,NR6,5N,195,850E,124,162M,7A,502,131,961M,2N,133,1N,111,32,656,961,851,665,162,660,NR5,195A,63A,166,36,16M,857,851e,502A,167,174,6N,652,51,NR8,175,14A,518,NR2,80,951E,63,77,960,36A,4N,174e,131A,14e,61,7,145,857B,106,NR1,3N,36B,960e,16,197,518A,663,14",65,80.0,False,0.9876851859571854,Raffles Place,2.0,1.0,0.12601626016260162,0.08130081300813008,-0.8739837398373984
54,48618,30019.18053,29617.61258,1.28412561,103.8514617,Raffles Place,Raffles Place,Downtown Core,Central,EW14 / NS26,operational,False,True,EW14,NS26,,,,26.0,,14.0,,,,,"130,850E,70,131,196A,196,656,665,162,660,868E,167,652,75,100,10e,10,196e,951E,107,131A,57,663",23,40.0,True,0.0,Raffles Place,2.0,0.7195121951219512,0.10975609756097561,0.02032520325203252,-0.6097560975609756
55,69119,29380.756739999997,28781.18833,1.276561317,103.8457252,Tanjong Pagar,Tanjong Pagar,Downtown Core,Central,EW15,operational,False,False,EW15,,,,,,,15.0,,,,,"186,672,670,653,651,671,131,666,656,970,655,665,660,167,652,661,654,667,57,668,657,400,663",23,670.0,False,1.0555294077844253,Raffles Place,2.0,0.7195121951219512,0.23170731707317074,0.08943089430894309,-0.4878048780487805
56,158792,26155.0535,30226.75978,1.2896345340000002,103.81674100000001,Redhill,Redhill,Bukit Merah,Central,EW18,operational,False,False,EW18,,,,,,,18.0,,,,,"32,145,33A,186,63,122,51,33,145A,64,970,139,120,NR5,63A,132",16,10620.0,False,3.908097849352169,Raffles Place,1.0,0.5203252032520326,0.5284552845528455,0.44715447154471544,0.008130081300812941
57,149729,24968.26735,30770.391110000004,1.294550852,103.8060772,Queenstown,Mei Chin,Queenstown,Central,EW19,operational,False,False,EW19,,,,,,,19.0,,,,,"111,186,145,195,51,64,970,195A,NR5",9,15570.0,False,5.176712782653109,Raffles Place,1.0,0.25203252032520324,0.6341463414634146,0.6097560975609756,0.3821138211382114
58,529538,40444.9732,37267.02627,1.3533016759999998,103.9451446,Tampines,Tampines East,Tampines,East,EW2/DT32,operational,True,True,EW2,DT32,,,,,32.0,2.0,,,,,"72,19,46,31A,293T,2N,68A,15,37,969A,129,29A,31,8,3,68,4,969,67,291T,15A,27,65,298,23,38,10,69,81,28,29,20,68B,127,21,127A,293,168,291,3A,27A,292",42,130980.0,True,0.0,Tampines,1.0,0.9186991869918699,0.9959349593495935,0.02032520325203252,0.07723577235772361
59,149735,24094.795140000002,31649.59892,1.302501999,103.79822850000001,Commonwealth,Commonwealth,Queenstown,Central,EW20,operational,False,False,EW20,,,,,,,20.0,,,,,"32,196,111,145,105,198,147,122,195,100,970,195A,NR5,61",14,7000.0,False,6.260601830569837,Raffles Place,1.0,0.44715447154471544,0.44715447154471544,0.7804878048780488,0.0
60,138677,21914.55093,32634.11863,1.311405293,103.7786378,Dover,Singapore Polytechnic,Queenstown,Central,EW22,operational,False,False,EW22,,,,,,,22.0,,,,,"105,147,106,NR8,74,NR5,166,185,14",9,100.0,False,4.7093153506538625,Jurong East,2.0,0.25203252032520324,0.13821138211382114,0.5365853658536586,-0.1138211382113821
61,609959,16790.74663,36056.301889999995,1.342352821,103.7325967,Chinese Garden,Lakeside (Leisure),Jurong East,West,EW25,operational,False,False,EW25,,,,,,,25.0,,,,,"180,335,180A",3,1070.0,False,1.4855128960846857,Jurong East,0.0,0.08943089430894309,0.2845528455284553,0.17886178861788618,0.1951219512195122
62,649845,15494.49695,36267.14703,1.344259115,103.7209491,Lakeside,Taman Jurong,Jurong West,West,EW26,operational,False,False,EW26,,,,,,,26.0,,,,,"180,154B,98M,98A,246,187,154,98B,49,180A,98,240,240M,240A,154A,335",16,39920.0,False,2.6741801522501913,Jurong East,0.0,0.5203252032520326,0.8699186991869918,0.3008130081300813,0.34959349593495925
63,648310,12864.96983,35529.51155,1.3375870109999999,103.6973216,Pioneer,Jurong West Central,Jurong West,West,EW28,operational,False,False,EW28,,,,,,,28.0,,,,,"193,502A,974A,5N,192,974,651,241,179,241A,502,258,185",13,63760.0,False,5.02274792250056,Jurong East,0.0,0.4065040650406504,0.9552845528455285,0.5934959349593496,0.5487804878048781
64,529888,41361.22817,36149.75278,1.343197079,103.9533772,Simei,Simei,Tampines,East,EW3,operational,False,False,EW3,,,,,,,3.0,,,,,"20,9A,5,38,4N,9",6,39450.0,False,1.4491265706497145,Tampines,1.0,0.15040650406504066,0.8577235772357723,0.16260162601626016,0.7073170731707317
65,637288,8770.351501000001,33526.57337,1.3194709009999999,103.66053050000001,Gul Circle,Gul Circle,Pioneer,West,EW30,operational,False,False,EW30,,,,,,,30.0,,,,,"192,193",2,20.0,False,9.21484949045348,Jurong East,2.0,0.052845528455284556,0.07317073170731707,0.967479674796748,0.020325203252032513
66,639608,7495.837867,33698.726310000005,1.3210269559999999,103.6490782,Tuas Crescent,Tuas North,Tuas,West,EW31,operational,False,False,EW31,,,,,,,31.0,,,,,"254,247",2,30.0,False,10.448848491215385,Jurong East,2.0,0.052845528455284556,0.09349593495934959,0.983739837398374,0.04065040650406503
67,639609,6442.928612,34689.35177,1.329985047,103.6396166,Tuas West Road,Tuas Bay,Tuas,West,EW32,operational,False,False,EW32,,,,,,,32.0,,,,,"248M,254,193,192,248",5,10.0,False,11.418701030380934,Jurong East,2.0,0.12195121951219512,0.032520325203252036,0.991869918699187,-0.08943089430894308
68,467356,40579.099780000004,34379.43168,1.327187291,103.9463486,Tanah Merah,Bedok South,Bedok,East,EW4,operational,False,False,EW4,,,,,,,4.0,,,,,"9A,24,35M,47,12e,9,45,35,14A,38,12,31,31A,48,2,2A,14",17,46690.0,False,2.906870028471813,Tampines,1.0,0.5487804878048781,0.9186991869918699,0.3333333333333333,0.36991869918699183
69,416551,36861.961489999994,33699.34405,1.3210381340000001,103.9129479,Kembangan,Kembangan,Bedok,East,EW6,operational,False,False,EW6,,,,,,,6.0,,,,,"26,24,32,854,30,7,135,28,42,25,2,33,2A,67",14,37460.0,False,5.067609322248828,Tampines,1.0,0.44715447154471544,0.8373983739837398,0.6016260162601627,0.3902439024390244
70,388310,33518.604869999996,33190.00202,1.316432612,103.882906,Aljunied,Aljunied,Geylang,Central,EW9,operational,False,False,EW9,,,,,,,9.0,,,,,"26,80A,137,2A,100A,158,62A,62,63A,853M,67,125,51,100,13,80,158A,63,21,125A,40,2",22,39990.0,False,5.012384629157317,Raffles Place,1.0,0.6788617886178862,0.8861788617886179,0.5853658536585366,0.20731707317073178
71,347694,31977.166760000004,34842.7251,1.33137949,103.8690557,Potong Pasir,Potong Pasir,Toa Payoh,Central,NE10,operational,False,False,NE10,,,,10.0,,,,,,,,"NR6,853,147,506,13,147A,107M,142A,142,853M,107,133",12,11720.0,False,5.606602970589618,Raffles Place,1.0,0.3617886178861789,0.5609756097560976,0.6666666666666666,0.19918699186991873
72,534799,33758.7578,38027.27944,1.360179171,103.8850649,Kovan,Kovan,Hougang,North-East,NE13,operational,False,False,NE13,,,,13.0,,,,,,,,"119,153,112,101,112A,82,107M,81,80,80A,115,113A,113,107,136",15,24810.0,False,6.722325772437863,Tampines,1.0,0.4796747967479675,0.6829268292682927,0.8455284552845529,0.20325203252032525
74,59815,29473.124939999998,30088.703789999996,1.288386024,103.8465552,Clarke Quay,Clarke Quay,Singapore River,Central,NE5,operational,False,False,NE5,,,,5.0,,,,,,,,"NR6,5N,195,147,124,147A,12,961M,2N,2A,1N,32,851,961,195A,NR5,63A,33,166,851e,190,174,6N,51,NR8,NR3,NR2,80,63,4N,174e,61,145,12e,NR1,3N,2,54,197",39,130.0,False,0.7224482438673576,Raffles Place,2.0,0.8983739837398373,0.15853658536585366,0.06504065040650407,-0.7398373983739837
75,229900,29817.20857,32124.85018,1.306800197,103.84964709999998,Little India,Farrer Park,Rochor,Central,NE7/DT12,operational,False,True,NE7,DT12,,,7.0,,12.0,,,,,,"170A,NR6,147,5N,139,131,980,1N,56,851,48,166,67,857,851e,6N,64,65,23,960,131A,57,3N,960e",24,2660.0,False,2.529355827776266,Raffles Place,2.0,0.7520325203252033,0.34552845528455284,0.2926829268292683,-0.40650406504065045
76,218703,30243.52065,32689.37956,1.311905573,103.8534777,Farrer Park,Farrer Park,Rochor,Central,NE8,operational,False,False,NE8,,,,8.0,,,,,,,,"141,131",2,2660.0,False,3.097110107391115,Raffles Place,1.0,0.052845528455284556,0.34552845528455284,0.35772357723577236,0.2926829268292683
77,328260,31144.04501,33510.974610000005,1.319335709,103.8615695,Boon Keng,Bendemeer,Kallang,Central,NE9,operational,False,False,NE9,,,,9.0,,,,,,,,"125,130,NR6,21,857,147,64,65,13,23,985,139,31,140,133",15,37570.0,False,4.073235695128358,Raffles Place,1.0,0.4796747967479675,0.8455284552845529,0.4715447154471545,0.3658536585365854
78,738344,24402.38663,46918.5068,1.4405885619999999,103.8009905,Admiralty,Woodlands East,Woodlands,North,NS10,operational,False,False,NS10,,,,,10.0,,,,,,,"965A,913,962,912,965,962C,964,904,901M,NR2,965T,912A,969",13,98980.0,False,1.5358149236906202,Woodlands,0.0,0.4065040650406504,0.983739837398374,0.18699186991869918,0.5772357723577236
79,756972,27597.596939999996,47193.60088,1.443076641,103.82970259999999,Canberra,Sembawang Springs,Sembawang,North,NS12,operational,False,False,NS12,,,,,12.0,,,,,,,"169A,117,883B,169,883,883M,117M",7,9090.0,False,4.707606121269792,Woodlands,0.0,0.18699186991869918,0.4715447154471545,0.5284552845528455,0.2845528455284553
80,769092,27962.31086,44352.567989999996,1.41738337,103.83297990000001,Khatib,Khatib,Yishun,North,NS14,operational,False,False,NS14,,,,,14.0,,,,,,,"858,854,670,117,850E,811,807,85A,852,860T,1N,811T,812,85,851,969A,857A,807A,812T,860,853M,117M,969,853,851e,857,854e,807B,117A,855,965,965T,857B,NR1,39",35,10250.0,False,5.420305617016388,Woodlands,0.0,0.8617886178861789,0.5121951219512195,0.6422764227642277,-0.34959349593495936
81,569813,29294.12623,40413.06264,1.381755871,103.8449473,Yio Chu Kang,Yio Chu Kang,Ang Mo Kio,North-East,NS15,operational,True,False,NS15,,,,,15.0,,,,,,,"72,162M,70,852,860T,76,71,851,162,860,45,853M,851e,853,13,72B,668,70A,70M,NR1,86,825,72A",23,20.0,False,8.7531553514516,Woodlands,2.0,0.7195121951219512,0.07317073170731707,0.943089430894309,-0.6463414634146342
82,319756,29500.23495,35847.77198,1.340469001,103.8467991,Braddell,Toa Payoh West,Toa Payoh,Central,NS18,operational,False,False,NS18,,,,,18.0,,,,,,,"231,59,235,129,232",5,14360.0,False,6.286503438995612,Raffles Place,1.0,0.12195121951219512,0.6138211382113821,0.7886178861788617,0.49186991869918695
83,307642,29169.329789999996,33633.15354,1.320440791,103.84382559999999,Novena,Moulmein,Novena,Central,NS20,operational,False,False,NS20,,,,,20.0,,,,,,,"141,5,21,56,57,167,851,162M,162,131,143,54,166,131A,980",15,9300.0,False,4.1263241319782455,Raffles Place,2.0,0.4796747967479675,0.4796747967479675,0.4796747967479675,0.0
84,228234,28519.283069999998,32735.077039999996,1.312318922,103.83798459999998,Newton,Newton Circus,Newton,Central,NS21/DT11,operational,False,True,NS21,DT11,,,,21.0,11.0,,,,,,"170A,143,5,167,NR1,124,162M,960e,518,162,48,960,54,518A,972M,67",16,250.0,False,3.474555592891637,Raffles Place,1.0,0.5203252032520326,0.1951219512195122,0.3902439024390244,-0.3252032520325204
85,238162,28641.834660000004,31402.124519999998,1.3002641670000001,103.8390858,Somerset,Somerset,Orchard,Central,NS23,operational,False,False,NS23,,,,,23.0,,,,,,,"NR6,5N,124,162M,7A,502,2N,1N,111,16,162,NR5,36,16M,972,502A,167,190,174,6N,NR8,65,NR3,175,7B,14A,NR2,77,4N,174e,972M,14e,7,123,106,NR1,3N,36B,143,36A,14",41,140.0,False,2.261219385686831,Raffles Place,2.0,0.9105691056910569,0.17073170731707318,0.2682926829268293,-0.7398373983739837
86,238826,29423.98045,31229.31637,1.298701325,103.8461137,Dhoby Ghaut,Dhoby Ghaut,Museum,Central,NS24/CC1/NE6,operational,False,True,NS24,CC1,NE6,1.0,6.0,24.0,,,,,,,"NR6,5N,972A,850E,124,162M,190A,7A,139,502,2N,1N,111,656,16,665,162,660,36,16M,972,502A,167,190,174,6N,652,65,64,175,7B,14A,518,951E,77,4N,174e,972M,14e,7,106,3N,36B,36A,518A,663,14",47,320.0,False,1.7263457099095751,Raffles Place,2.0,0.9552845528455285,0.21138211382113822,0.21138211382113822,-0.7439024390243902
87,18925,30367.954719999998,28764.49593,1.2764102990000001,103.8545955,Marina Bay,Central Subzone,Downtown Core,Central,NS27/CE2/TE20,operational,False,True,NS27,CE2,TE20,,,27.0,,,,,20.0,2.0,"672,97,670,653,651,671,502,97e,982E,666,513,133,655,502A,661,654,667,668,657,106,400",21,880.0,False,0.9259394808698478,Raffles Place,2.0,0.6504065040650406,0.26422764227642276,0.07317073170731707,-0.3861788617886179
89,659083,18926.9127,37854.03588,1.3586115909999998,103.7517909,Bukit Gombak,Guilin,Bukit Batok,West,NS3,operational,False,False,NS3,,,,,3.0,,,,,,,"945,NR8,3N,991C,991",5,12940.0,False,3.021632482015932,Jurong East,0.0,0.12195121951219512,0.5853658536585366,0.34146341463414637,0.46341463414634143
90,689715,18438.983119999997,42158.0181,1.3975350690000001,103.7474052,Yew Tee,Yew Tee,Choa Chu Kang,West,NS5,operational,False,False,NS5,,,,,5.0,,,,,,,"302A,NR3,307A,3N,302,307,979",7,40390.0,False,6.216935058935252,Woodlands,0.0,0.18699186991869918,0.9024390243902439,0.7642276422764228,0.7154471544715447
91,738702,20078.58651,45204.51685,1.425086981,103.7621375,Kranji,Turf Club,Sungei Kadut,North,NS7,operational,False,False,NS7,,,,,7.0,,,,,,,"170A,925A,178A,925,961,160,925M,178,960,961M",10,670.0,False,3.116726574550072,Woodlands,2.0,0.2967479674796748,0.23170731707317074,0.36585365853658536,-0.06504065040650406
92,739044,21407.04132,46026.51253,1.432521149,103.77407459999999,Marsiling,Woodlands West,Woodlands,North,NS8,operational,False,False,NS8,,,,,8.0,,,,,,,"913T,950,913M,926,963,961M,913,856,925,961,160,966A,912B,178,963R,187,963e,925M,912,960,925A,960e,966",23,33910.0,False,1.5905236934967002,Woodlands,0.0,0.7195121951219512,0.8048780487804879,0.1951219512195122,0.08536585365853666
93,737668,22699.99124,47770.39457,1.448292453,103.7856927,Woodlands North,Greenwood Park,Woodlands,North,TE1,operational,False,False,TE1,,,,,,,,,,1.0,,856,1,40.0,False,1.3831727351816805,Woodlands,2.0,0.016260162601626018,0.10975609756097561,0.13821138211382114,0.09349593495934959
97,237974,27783.69734,31709.532489999998,1.3030442629999999,103.831375,Orchard,Paterson,River Valley,Central,TE14/NS22,operational,False,True,TE14,NS22,,,,22.0,,,,,14.0,,"NR6,972A,5N,124,54,162M,190A,7A,2N,1N,111,5,16,162,NR5,36,16M,972,174,167,190,6N,NR8,65,NR3,175,NR2,518,77,4N,174e,972M,14e,7,123,106,NR1,3N,36B,143,36A,518A,14",43,240.0,False,3.0678221086385933,Raffles Place,2.0,0.926829268292683,0.18292682926829268,0.34959349593495936,-0.7439024390243902
111,737741,23542.55457,45459.758819999995,1.427396053,103.79326429999999,Woodlands South,Woodlands South,Woodlands,North,TE3,operational,False,False,TE3,,,,,,,,,,3.0,,"665,901,901M",3,41000.0,False,1.1305081378587971,Woodlands,1.0,0.08943089430894309,0.9105691056910569,0.10569105691056911,0.8211382113821137
114,787140,26279.32794,42162.93444,1.397581061,103.8178569,Springleaf,Nee Soon,Yishun,North,TE4,operational,False,False,TE4,,,,,,,,,,4.0,,"138A,167,138,169,860,860T,980",7,890.0,False,5.418959931224707,Woodlands,2.0,0.18699186991869918,0.2764227642276423,0.6341463414634146,0.0894308943089431
115,789361,28269.89707,40827.793939999996,1.38550658,103.8357438,Lentor,Tagore,Ang Mo Kio,North-East,TE5,operational,False,False,TE5,,,,,,,,,,5.0,,825,1,7950.0,False,7.7353156131663825,Woodlands,0.0,0.016260162601626018,0.45528455284552843,0.9186991869918699,0.43902439024390244
116,569900,28361.59505,39274.94719,1.371463188,103.8365678,Mayflower,Kebun Bahru,Ang Mo Kio,North-East,TE6,operational,False,False,TE6,,,,,,,,,,6.0,,"76,268A,71,268B,269,652,269A,262,265,268,CT8,268C,1N",13,22620.0,False,8.989475734829476,Woodlands,0.0,0.4065040650406504,0.6666666666666666,0.9512195121951219,0.26016260162601623
117,575737,27952.7071,38370.443889999995,1.363283185,103.8328936,Bright Hill,Upper Thomson,Bishan,Central,TE7,operational,False,False,TE7,,,,,,,,,,7.0,,"410G,162M,52,162,410,410W",6,29390.0,False,9.040709629259286,Raffles Place,1.0,0.15040650406504066,0.7560975609756098,0.959349593495935,0.6056910569105691
118,577937,27953.2465,37390.00369,1.354416434,103.8328985,Upper Thomson,Upper Thomson,Bishan,Central,TE8,operational,False,False,TE8,,,,,,,,,,8.0,,"163,167,410G,165,162M,52,162,855,132,166,410,410W,980",13,29390.0,False,8.08380970073053,Raffles Place,2.0,0.4065040650406504,0.7560975609756098,0.9349593495934959,0.34959349593495936
119,297608,28761.5758,35491.34314,1.3372456129999999,103.8401618,Caldecott,Toa Payoh West,Toa Payoh,Central,TE9/CC17,operational,False,True,TE9,CC17,,17.0,,,,,,,9.0,,"141,235",2,14360.0,False,6.038770777782457,Raffles Place,1.0,0.052845528455284556,0.6138211382113821,0.7235772357723578,0.5609756097560975
120,556082,32390.68525,36971.75455,1.350633615,103.8727717,Serangoon,Serangoon Central,Serangoon,North-East,CC13/NE12,operational,True,True,CC13,NE12,,13.0,12.0,,,,,,,,"NR6,135,53,109A,147,506,101,147A,107M,70,116A,103,100A,133,58A,43,105,153,158,45,853M,70B,22,53M,43M,853,315,100,81,45A,107,70A,70M,317,82,116,58,109",38,24760.0,False,7.765507496303116,Raffles Place,1.0,0.8821138211382114,0.6747967479674797,0.926829268292683,-0.20731707317073167
121,579842,29760.77555,37047.15733,1.351315801,103.84914029999999,Bishan,Bishan East,Bishan,Central,CC15/NS17,operational,True,True,CC15,NS17,,15.0,,17.0,,,,,,,"53,88,13A,410W,50,56,71,410,59,55B,410G,13,52,55,57,NR1,54,58,156",19,28310.0,False,7.475663791302881,Raffles Place,1.0,0.5894308943089431,0.7235772357723578,0.9024390243902439,0.13414634146341464
122,39193,31008.36188,30709.257810000003,1.293997986,103.86035,Promenade,Marina Centre,Downtown Core,Central,CC4/DT15,operational,True,True,CC4,DT15,,4.0,,,15.0,,,,,,"97,162M,107M,502,97e,133,111,868E,36,857,502A,518,857B,70A,106,70M,36B,36A,518A",19,10.0,False,1.4769503642747916,Raffles Place,2.0,0.5894308943089431,0.032520325203252036,0.17073170731707318,-0.5569105691056911
123,819661,45201.32039,37729.193380000004,1.357478974,103.98788359999999,Changi Airport,Changi Airport,Changi,East,CG2,operational,True,False,CG2,,,,,,,,2.0,,,,"53A,858,24,858B,27,53,110,34B,34,36",10,10.0,False,4.773682429050028,Tampines,2.0,0.2967479674796748,0.032520325203252036,0.5528455284552846,-0.26422764227642276
124,678213,20011.398119999998,40108.683769999996,1.379002116,103.76153509999999,Bukit Panjang,Gombak,Bukit Batok,West,DT1/BP6,operational,True,True,DT1,BP6,,,,,1.0,,,6.0,,,"170A,974A,972A,176,180A,190A,963,961M,180,171,961,160,974,178,970,177,67,983,979,963R,973,972,187,190,963e,75,NR3,973A,960,972M,922,975C,920,184,975,976",36,9930.0,False,5.529046358580318,Jurong East,1.0,0.8699186991869918,0.5040650406504065,0.6504065040650406,-0.36585365853658536
125,588216,21598.16648,35931.235889999996,1.341223176,103.7757943,Beauty World,Anak Bukit,Bukit Timah,Central,DT5,operational,False,False,DT5,,,,,,5.0,,,,,,"170A,852,961M,961,157,970,985,67,174,75,52,77,174e,66,61,184,41,3N,173",19,21870.0,False,3.8314766292126685,Jurong East,1.0,0.5894308943089431,0.6504065040650406,0.43089430894308944,0.060975609756097504
126,519634,40905.597460000005,39449.982339999995,1.373043316,103.94928449999999,Pasir Ris,Pasir Ris Central,Pasir Ris,East,EW1,operational,True,False,EW1,,,,,,,1.0,,,,,"53A,53,359,88,403,12,5,15,17,3,68,15A,89,58B,518,81,4N,21,358,12e,354,89A,3A,6,39,518A,58,109",28,32240.0,False,2.2428913140207576,Tampines,1.0,0.7764227642276422,0.7967479674796748,0.2601626016260163,0.020325203252032575
127,387405,32236.603839999996,32643.33024,1.31148891,103.8713865,Kallang,Boon Keng,Kallang,Central,EW10,operational,True,False,EW10,,,,,,,10.0,,,,,"26,7A,12,961M,2A,980,141,32,961,62,985,31,63A,853M,33,67,853,51,100,175,13,80,63,7,21,11,21A,2,197,140",30,11790.0,False,3.7634911119149836,Raffles Place,0.0,0.8211382113821138,0.5691056910569106,0.42276422764227645,-0.2520325203252033
128,168731,27346.33227,29836.20442,1.286102536,103.82744509999999,Tiong Bahru,Tiong Bahru Station,Bukit Merah,Central,EW17,operational,True,False,EW17,,,,,,,17.0,,,,,"5,33A,123,851,123M,122,195,33,121,195A,NR5,63,63A,16,16M",15,15120.0,False,2.6788867588814633,Raffles Place,1.0,0.4796747967479675,0.6260162601626016,0.3089430894308943,0.1463414634146341
129,139345,23207.2578,32171.7151,1.307223708,103.7902535,Buona Vista,One North,Queenstown,Central,EW21/CC22,operational,True,True,EW21,CC22,,22.0,,,,21.0,,,,,"92B,147,95B,196,111,105,92M,198,NR5,185,200A,NR8,100,74,200,191,92,91,106,95,92A,14",22,720.0,False,6.061857010763538,Jurong East,2.0,0.6788617886178862,0.24796747967479674,0.7317073170731707,-0.43089430894308944
130,129580,20418.105509999998,33044.49447,1.315116253,103.7651915,Clementi,Clementi Central,Clementi,West,EW23,operational,True,False,EW23,,,,,,,23.0,,,,,"147,154,5N,106A,196,284,99,105,201,NR5,285,166,185,96,NR8,175,7B,52,14,78,7,189,106,184,96B,165,183,105B,154B,96A,173,282,156",33,14000.0,False,3.2412617799871386,Jurong East,1.0,0.8495934959349594,0.6016260162601627,0.37398373983739835,-0.2479674796747967
131,609690,17869.05705,35038.96887,1.333152816,103.7422863,Jurong East,Jurong Gateway,Jurong East,West,EW24 / NS1,operational,True,True,EW24,NS1,,,,1.0,,24.0,,,,,"98M,97,506,98,143M,334,97e,105,160,183B,333,51A,197,167,51,49,160M,52,66,78,990,105B,41,183,143,160A,335",27,450.0,True,0.0,Jurong East,2.0,0.7642276422764228,0.21951219512195122,0.02032520325203252,-0.5447154471544716
132,649846,13837.982719999998,35641.91912,1.338604055,103.70606459999999,Boon Lay,Jurong West Central,Jurong West,West,EW27,operational,True,False,EW27,,,,,,,27.0,,,,,"246,249,974A,154,5N,180A,181,180,243G,405,242,79A,198,974,181M,157,178,258,240,NR5,240M,243W,193,30,179A,174,187,192,252,241,179,199,174e,79,172,251,194,198A,154B",39,63760.0,False,4.071943124358783,Jurong East,1.0,0.8983739837398373,0.9552845528455285,0.4634146341463415,0.056910569105691144
133,629116,10756.33797,34438.26178,1.3277170409999999,103.678375,Joo Koon,Joo Koon,Pioneer,West,EW29,operational,True,False,EW29,,,,,,,29.0,,,,,"99,254,257,255,193,252,974A,182,192,253,974,258,182M",13,30.0,False,7.13036104103914,Jurong East,2.0,0.4065040650406504,0.09349593495934959,0.8699186991869918,-0.3130081300813008
134,638418,6150.862788,35894.35822,1.340882425,103.63699140000001,Tuas Link,Tuas Promenade,Tuas,West,EW33,operational,True,False,EW33,,,,,,,33.0,,,,,"248M,193,247,182,192,248,182M",7,10.0,False,11.736584520205364,Jurong East,2.0,0.18699186991869918,0.032520325203252036,1.0,-0.15447154471544713
135,467347,38757.95205,34024.70478,1.323979969,103.9299845,Bedok,Bedok North,Bedok,East,EW5,operational,True,False,EW5,,,,,,,5.0,,,,,"9A,155,26,854,24,87,17A,7A,137,196A,401,18,228,222A,30e,196,9,32,60T,2A,229,17,31,25,33,222,60,16M,67,30,35M,854e,225W,33B,14A,38,69,28,4N,225G,7,222B,168,35,40,2,16,197,137A,14",50,81840.0,False,3.670217087635345,Tampines,1.0,0.983739837398374,0.975609756097561,0.4146341463414634,-0.008130081300813052
136,409423,35779.98835,33560.5859,1.319783549,103.90322579999999,Eunos,Geylang East,Geylang,Central,EW7,operational,True,False,EW7,,,,,,,7.0,,,,,"26,155,24,854,60A,154,150,2,2A,60T,76,30e,2N,94,15,25,63A,60,67,22,93,30,51,13,28,63,55,61,94A,21,7,63M,966",33,29920.0,False,5.967029528487465,Tampines,1.0,0.8495934959349594,0.7764227642276422,0.7154471544715447,-0.07317073170731714
137,98867,26688.0367,27545.853430000003,1.2653893840000001,103.8215302,Harbourfront,Maritime Square,Bukit Merah,Central,NE1 / CC29,operational,True,True,NE1,CC29,,29.0,1.0,,,,,,,,"NR6,97,131,97e,188R,30e,166,963R,30,65,100,855,10,80,61,145,57,123M,NR1,143",20,3620.0,False,3.9258225906154496,Raffles Place,2.0,0.6219512195121951,0.36585365853658536,0.45528455284552843,-0.25609756097560976
139,538758,34572.87525,39256.128280000004,1.371292266,103.8923805,Hougang,Hougang Central,Hougang,North-East,NE14,operational,True,False,NE14,,,,14.0,,,,,,,,"161,325,72,87,147,101,147A,107M,151,80A,324,329,153,112,62A,112A,62,132,102,27,89,6N,51,74,80,113,107,165,82,72A,89e,116",32,4720.0,False,6.197197586193637,Tampines,1.0,0.8333333333333334,0.4065040650406504,0.7560975609756098,-0.426829268292683
140,545061,34655.42506,40536.340169999996,1.38287002,103.89312259999998,Buangkok,Compassvale,Sengkang,North-East,NE15/STC,operational,True,True,NE15,STC,,,15.0,,,,,,,,"102,27,43M,43,43e,114",6,20960.0,False,6.652238434240574,Tampines,0.0,0.15040650406504066,0.6422764227642277,0.8292682926829268,0.49186991869918706
141,545062,34918.27401,41512.12769,1.391694626,103.89548470000001,Sengkang,Sengkang Town Centre,Sengkang,North-East,NE16,operational,True,False,NE16,,,,16.0,,,,,,,,"161,119,NR6,87,85A,80A,50,374,43,85,371,159A,102,27,43M,89,163A,43e,80,965T,965,109,163,372,159,86,83T,27A,89e,110,83,156",32,61790.0,False,6.978497696751569,Tampines,1.0,0.8333333333333334,0.943089430894309,0.8617886178861789,0.1097560975609756
142,828868,35651.3828,42933.24827,1.4045465369999999,103.9020726,Punggol,Matilda,Punggol,North-East,NE17/PTC,operational,True,True,NE17,PTC,,,17.0,,,,,,,,"381,119,117,34A,34,50,43,85,386,62A,62,386A,3,382A,117M,382,136,43M,6N,84,43e,382W,384,118,382G,83T,82,39,83",29,52200.0,False,7.442719677699982,Tampines,1.0,0.8008130081300813,0.926829268292683,0.8943089430894309,0.1260162601626017
143,59816,28681.249289999996,29130.522269999998,1.279720594,103.8394399,Outram Park,Singapore General Hospital,Bukit Merah,Central,NE3/EW16/TE17,operational,True,True,NE3,EW16,TE17,,3.0,,,16.0,,,17.0,,"147,124,147A,12,961M,2,851,961,970,63A,33,CT8,166,851e,190,CT18,63,61,12e,143,54,197",22,10.0,False,1.423362413498626,Raffles Place,2.0,0.6788617886178862,0.032520325203252036,0.15447154471544716,-0.6463414634146342
144,759775,26522.98826,47854.19984,1.4490508219999998,103.82004609999998,Sembawang,Sembawang Central,Sembawang,North,NS11,operational,True,False,NS11,,,,,11.0,,,,,,,"858,962B,117,859B,858A,859A,980,656,856,962,883M,117M,167,859T,882,981,882A,NR2,859,883",20,34800.0,False,3.8503782311468995,Woodlands,0.0,0.6219512195121951,0.8130081300813008,0.43902439024390244,0.19105691056910568
145,769093,28187.678819999997,45686.07054,1.429443085,103.83500500000001,Yishun,Yishun West,Yishun,North,NS13,operational,True,False,NS13,,,,,13.0,,,,,,,"858,854,965A,117,811,807,85A,103,852,860T,858A,811T,171,812,85,856,851,969A,883B,857A,807A,812T,860,800,853M,117M,883M,969,811A,853,851e,857,854e,859T,801,807B,806,803,855,804,805,965,965T,859,169A,857B,169,883,39",49,53910.0,False,5.283332244740035,Woodlands,0.0,0.9715447154471545,0.9349593495934959,0.6178861788617886,-0.03658536585365857
146,569812,29807.26115,39105.736000000004,1.36993285,103.8495581,Ang Mo Kio,Cheng San,Ang Mo Kio,North-East,NS16,operational,True,False,NS16,,,,,16.0,,,,,,,"24,130,135,73T,268B,88,138,130A,88A,268C,133,76,268A,1N,50,269,269A,262,73,268,25,138B,132,166,CT8,136,22,159A,261,74,159B,88B,138A,159,265,86,165,169",38,28070.0,False,9.543676124509027,Raffles Place,1.0,0.8821138211382114,0.7154471544715447,0.975609756097561,-0.16666666666666663
147,319398,29578.48907,34980.89629,1.332629281,103.8475022,Toa Payoh,Toa Payoh Central,Toa Payoh,Central,NS19,operational,True,False,NS19,,,,,19.0,,,,,,,"26,155,73T,88,139,238,142A,141,56,105,153,129,90A,157,73,31,8,90,235,28,142,163,231,145,139M,159,NR1,232,143",29,28020.0,False,5.411293497503036,Raffles Place,1.0,0.8008130081300813,0.7073170731707317,0.6260162601626016,-0.0934959349593496
148,659958,18679.32232,36794.92602,1.349033312,103.7495665,Bukit Batok,Bukit Batok Central,Bukit Batok,West,NS2,operational,True,False,NS2,,,,,2.0,,,,,,,"944,945,947,990,189,187,106,173A,991A,941,189A,106A,852,77,991,173,177,61",18,27290.0,False,1.9424529442628187,Jurong East,0.0,0.5650406504065041,0.6991869918699187,0.22764227642276422,0.13414634146341464
149,689810,18101.2472,40812.12161,1.385363165,103.7443708,Choa Chu Kang,Choa Chu Kang Central,Choa Chu Kang,West,NS4,operational,True,False,NS4,,,,,4.0,,,,,,,"975A,974A,190A,927,991,188R,925,974,985,302,300,188,67,983,190,188e,NR3,307A,301,307,975B,172,975C,991B,3N,307T,983A,975,976",29,22530.0,False,5.810148511406122,Jurong East,1.0,0.8008130081300813,0.6585365853658537,0.6829268292682927,-0.14227642276422758
150,737736,22949.919130000002,46417.52233,1.436057617,103.78793879999999,Woodlands,Woodlands Regional Centre,Woodlands,North,TE2/NS9,operational,True,True,TE2,NS9,,,,9.0,,,,,2.0,,"858,161,169B,902,965A,913T,913M,950,926,963,961M,858A,903,856,913,962,925,961,966A,912B,178,665,904,903M,912M,969,963R,178A,187,912,963e,925M,964,901M,960,965,901,965T,900A,911,169A,925A,168,960e,169,900,966,912A,911T",49,10.0,True,0.0,Woodlands,1.0,0.9715447154471545,0.032520325203252036,0.02032520325203252,-0.9390243902439025
